City_ID,City,Country,Max Temp,Current Description,Lat,Lng,Hotel Name
3,Arraial Do Cabo,BR,67.86,overcast clouds,-22.9661,-42.0278,Pousada Porto Praia
4,Rikitea,PF,74.35,light rain,-23.1203,-134.9692,People ThankYou
6,Kavieng,PG,81.9,clear sky,-2.5744,150.7967,Nusa Island Retreat
7,Lata,PT,77.81,clear sky,40.1629,-8.3327,Casa Maquia
14,Kijang,KR,65.93,clear sky,35.2442,129.2139,Samyang Beach Villa
19,Yellowknife,CA,66.72,scattered clouds,62.456,-114.3525,The Explorer Hotel
21,Mahebourg,MU,73.69,broken clouds,-20.4081,57.7,Shandrani Beachcomber Resort & Spa
23,Atakpame,TG,72.95,overcast clouds,7.5333,1.1333,Hôtel Luxembourg Atakpame
24,Saint-Philippe,RE,67.59,light rain,-21.3585,55.7679,"Chambres d'hôte ""La Trinité"""
25,Kapaa,US,78.78,broken clouds,22.0752,-159.319,Sheraton Kauai Coconut Beach Resort
27,Hithadhoo,MV,83.71,light rain,-0.6,73.0833,Scoop Guest House
28,Albany,US,77.92,overcast clouds,42.6001,-73.9662,
31,Dingle,PH,76.6,broken clouds,10.9995,122.6711,SEGAYA PROPERTY
32,Kirakira,SB,78.4,clear sky,-10.4544,161.9205,SanBiz Lodge
33,Vanimo,PG,76.51,broken clouds,-2.6741,141.3028,Vahmoneh Lodge Vanimo
34,Jamestown,US,74.01,broken clouds,42.097,-79.2353,Hampton Inn & Suites Jamestown
36,Valle De San Juan,CO,77.18,broken clouds,4.1987,-75.1173,Hostal Bety
39,Portland,US,66.78,broken clouds,45.5234,-122.6762,Embassy Suites by Hilton Portland Downtown
40,Trabzon,TR,66.29,scattered clouds,40.9167,39.8333,SANDALS HOTEL
41,Kahului,US,80.62,few clouds,20.8947,-156.47,Maui Seaside Hotel
42,Carnarvon,AU,70.47,clear sky,-24.8667,113.6333,Hospitality Carnarvon
47,Victoria,HK,80.65,overcast clouds,22.2855,114.1577,Mini Central
50,Puerto Ayora,EC,76.96,broken clouds,-0.7393,-90.3518,Finch Bay Galapagos Hotel
51,Kasongo-Lunda,CD,70.43,clear sky,-6.4667,16.8167,
52,Alofi,NU,73.29,broken clouds,-19.0595,-169.9187,Taloa Heights
57,Gamba,GA,75.63,clear sky,-2.65,10.0,
58,Caravelas,BR,75.83,broken clouds,-17.7125,-39.2481,Pousada dos Navegantes
59,East London,ZA,68.94,clear sky,-33.0153,27.9116,Tu Casa
60,Buchanan,LR,78.01,light rain,5.8808,-10.0467,Kamaneahn Hotel Inc
63,Shelburne,CA,73.9,scattered clouds,44.0787,-80.2041,The Retreat at the Farm
64,Bethel,US,77.14,clear sky,41.3712,-73.414,Courtyard by Marriott Danbury
65,Yueyang,CN,72.7,overcast clouds,29.3333,113.0919,Delong Fortune Hotel
66,Tuy Hoa,VN,77.29,broken clouds,13.0833,109.3,CenDeluxe Hotel Tuy Hoa
67,Aripuana,BR,79.79,light rain,-9.1667,-60.6333,
68,Tura,IN,73.92,light rain,25.5198,90.2201,Hotel RIKMAN Continental
70,Sao Filipe,CV,73.49,few clouds,14.8961,-24.4956,Hotel Xaguate
72,Tsalenjikha,GE,68.49,clear sky,42.6044,42.0682,Toba Guest House
73,Butaritari,KI,81.52,broken clouds,3.0707,172.7902,Isles Sunset Lodge
74,Ponta Do Sol,PT,75.7,clear sky,32.6667,-17.1,Hotel do Campo
75,Cape Town,ZA,70.12,clear sky,-33.9258,18.4232,"Radisson Blu Hotel Waterfront, Cape Town"
78,Ambon,ID,77.14,scattered clouds,-3.6954,128.1814,Swiss-Belhotel Ambon
79,Souillac,MU,73.78,broken clouds,-20.5167,57.5167,Shanti Maurice Resort & Spa
81,Faya,SA,77.52,clear sky,18.3851,42.4509,املاك خالد الشعشوع
84,Mabaruma,GY,84.2,broken clouds,8.2,-59.7833,Monty Brooms Guest House
85,Waingapu,ID,75.87,overcast clouds,-9.6567,120.2641,Pondok Wisata Elim
86,Pisco,PE,65.01,mist,-13.7,-76.2167,Hotel San Isidro Oficial
88,Guerrero Negro,MX,76.75,clear sky,27.9769,-114.0611,"Casa Laguna, Bed & Breakfast"
89,Beloha,MG,67.57,clear sky,-25.1667,45.05,
91,Seoul,KR,65.8,clear sky,37.5683,126.9778,롯데호텔 서울
94,Avarua,CK,75.25,broken clouds,-21.2078,-159.775,Paradise Inn
98,Sukhumi,GE,70.92,clear sky,43.0033,41.0153,Leon Boutique Hotel
108,Otradnoye,RU,66.25,few clouds,59.7775,30.8181,Baza otdikha Petrushinsky Khutor
109,Tautira,PF,78.22,light rain,-17.7333,-149.15,Pension Oaoa
113,Puerto Leguizamo,CO,70.63,overcast clouds,-0.1934,-74.7819,la casona de juancho
114,Portel,BR,82.31,overcast clouds,-1.9356,-50.8211,Kitnet do Marcos
116,Fortuna,US,72.52,broken clouds,40.5982,-124.1573,Super 8 by Wyndham Fortuna
117,Periyanegamam,IN,77.5,overcast clouds,10.7333,77.1,Nandhu Site
121,Wanlaweyn,SO,76.75,broken clouds,2.6185,44.8938,GAASHAAN HOME
122,Jalu,LY,81.23,clear sky,29.0331,21.5482,صاحبة الفخامة
127,Ribeira Grande,PT,68.4,few clouds,38.5167,-28.7,Quinta da Meia Eira
128,Vaini,TO,73.56,scattered clouds,-21.2,-175.2,Keleti Beach Resort
130,Eirunepe,BR,73.08,overcast clouds,-6.6603,-69.8736,Atrás de você
132,Torbay,CA,72.37,broken clouds,47.6666,-52.7314,Gallows Cove
133,Richards Bay,ZA,66.78,clear sky,-28.783,32.0377,BON Hotel Waterfront Richards Bay
135,Sarankhola,BD,82.71,few clouds,22.3082,89.7897,Red Crescent Cyclone Shelter Rashulpur
138,Quelimane,MZ,66.15,few clouds,-17.8786,36.8883,Hotel Flamingo
141,Lillooet,CA,69.3,few clouds,50.6856,-121.942,Hotel Victoria
153,Palasa,IN,81.82,overcast clouds,18.7667,84.4167,Balaji tifen & meals veg & non veg hotel
158,Bambous Virieux,MU,73.65,broken clouds,-20.3428,57.7575,Casa Tia Villa
160,Stonewall,CA,76.78,broken clouds,50.1344,-97.3268,Rockwood Motor Inn & Motel
163,Gardez,AF,67.39,overcast clouds,33.5974,69.2259,Gardezi Home
165,Nikolskoye,RU,66.09,scattered clouds,59.7035,30.7861,Tourist House - Sablino
167,Bardiyah,LY,73.78,clear sky,31.7561,25.0865,بورتو بردية
168,Sarlat-La-Caneda,FR,73.87,broken clouds,44.889,1.2166,Hotel Plaza Madeleine À Sarlat
169,Hilo,US,80.28,broken clouds,19.7297,-155.09,Hilo Hawaiian Hotel
173,Ranong,TH,79.25,overcast clouds,9.9658,98.6348,Tinidee Hotel@Ranong
174,Zaria,NG,76.73,light rain,11.1113,7.7227,A.B.U Hotels
185,Lingao,CN,79.74,overcast clouds,19.9103,109.6859,Lingao Ditai Inn
186,Mahibadhoo,MV,82.92,overcast clouds,3.7833,72.9667,Omadhoo Inn
188,Antalaha,MG,71.78,few clouds,-14.9003,50.2788,Hotel Vitasoa
191,Port Alfred,ZA,68.14,clear sky,-33.5906,26.891,The Halyards Hotel
192,Haradok,BY,68.23,few clouds,55.4624,29.9816,Sportivnyy Gorodok
193,Kathmandu,NP,71.82,few clouds,27.7167,85.3167,Hotel Shanker Kathmandu
194,Isangel,VU,76.91,overcast clouds,-19.55,169.2667,Tanna Lodge
195,Laizhou,CN,67.39,overcast clouds,37.1717,119.9214,GreenTree Inn Yantai Laizhou South Road Unicom Building Express Hotel
196,Pionerskiy,RU,66.04,clear sky,54.9508,20.2275,Baltica Pension
198,Hamina,FI,69.08,clear sky,60.5697,27.1979,SpaHotel Hamina
199,Sangueya,GN,80.38,overcast clouds,10.7,-14.3667,
200,Gizo,SB,80.89,clear sky,-8.103,156.8419,Imagination Island
203,Mogadishu,SO,79.21,broken clouds,2.0371,45.3438,Hotel Juba
204,Berea,US,78.26,broken clouds,41.3662,-81.8543,Comfort Inn Cleveland Airport
205,Hambantota,LK,79.14,broken clouds,6.1241,81.1185,Bungalow 63
206,Nago,JP,76.05,overcast clouds,26.5881,127.9761,Hotel Yugaf Inn Okinawa
207,Tagusao,PH,79.38,overcast clouds,9.1924,117.8141,Green Villa beach resort
210,Tabriz,IR,69.26,scattered clouds,38.08,46.2919,Sina Hotel
211,Namibe,AO,71.51,clear sky,-15.1961,12.1522,Hotel Chik Chik Namibe
213,Catamarca,AR,68.58,clear sky,-28.4696,-65.7852,Amerian Catamarca Park Hotel
214,Monrovia,LR,78.1,light rain,6.3005,-10.7969,Sunset Inn
215,Nangong,CN,71.58,moderate rain,37.3581,115.3744,7Days Inn Xingtai South Yucai Road
217,Krasnoselkup,RU,65.73,overcast clouds,65.7,82.4667,Krasnosel'kupnefteprodukt
219,Siparia,TT,78.64,overcast clouds,10.1333,-61.5,Brook Gardens
220,Saint Anthony,US,79.21,broken clouds,45.0205,-93.218,"Holiday Inn Express Roseville-St. Paul, an IHG Hotel"
222,Bengkulu,ID,74.86,light rain,-3.8004,102.2655,Grage Hotel Bengkulu
224,Auki,SB,76.15,clear sky,-8.7676,160.7034,Auki Motel
225,Yining,CN,72.0,overcast clouds,29.0361,114.5636,Xiushui Hotel
226,Banda Aceh,ID,79.84,overcast clouds,5.5577,95.3222,OYO 884 Rumoh PMI Hotel
227,Luwuk,ID,77.52,overcast clouds,-0.9516,122.7875,Hotel Santika Luwuk
231,Kanigoro,ID,72.68,overcast clouds,-8.13,112.219,Musafer Villa ( Villa Erlin )
232,Karratha,AU,72.64,clear sky,-20.7377,116.8463,ibis Styles Karratha
233,Kununurra,AU,66.18,broken clouds,-15.7667,128.7333,Hotel Kununurra
234,Hami,CN,75.09,clear sky,42.8,93.45,Laoyutang Resort
238,Santa Rosa,PH,84.18,broken clouds,14.3122,121.1114,Erlyn’s Sta Rosa City Home
239,Atambua,ID,69.53,overcast clouds,-9.1061,124.8925,Kost Alfa Flat
240,Birao,CF,73.65,light rain,10.2849,22.7882,
243,Aksum,ET,72.73,clear sky,14.1245,38.7244,Remhai Hotel
244,Luanda,AO,77.0,few clouds,-8.8368,13.2343,EPIC SANA Luanda
245,Atuona,PF,77.5,clear sky,-9.8,-139.0333,Villa Enata
246,Quatre Cocos,MU,73.51,overcast clouds,-20.2078,57.7625,Sunrise Attitude Hotel
247,Tignere,CM,65.7,light rain,7.3667,12.65,SADECK
248,Thompson,CA,66.36,scattered clouds,55.7435,-97.8558,Burntwood Hotel
250,Saint-Joseph,RE,66.58,few clouds,-21.3667,55.6167,"""Plantation Bed and Breakfast"
251,South Lake Tahoe,US,80.8,clear sky,38.9332,-119.9844,Tahoe Lakeshore Lodge & Spa
254,Jaffna,LK,82.36,overcast clouds,9.6685,80.0074,Green Grass Hotel & Restaurant (Pvt) Ltd.
255,Jingdezhen,CN,69.39,overcast clouds,29.2947,117.2079,Garden Hotel
256,Alyangula,AU,69.82,overcast clouds,-13.8483,136.4192,Groote Eylandt Lodge
259,Nuoro,IT,66.99,clear sky,40.3211,9.3297,Hotel Sandalia
260,Naze,JP,72.52,overcast clouds,28.3667,129.4833,Shishime Hotel
263,Itoman,JP,77.02,overcast clouds,26.1247,127.6694,Southern Beach Hotel & Resort Okinawa
264,Portobelo,PA,84.11,overcast clouds,9.55,-79.65,Scuba Portobelo
268,Tatawin,TN,77.63,clear sky,32.9297,10.4518,Sangho Privilege Tataouine
271,Daru,PG,77.7,overcast clouds,-9.0763,143.2092,Daru Lodge
275,Kontagora,NG,81.1,light rain,10.3999,5.4695,Queens Guest Inn
279,Neyshabur,IR,71.29,clear sky,36.2133,58.7958,Amiran Hotel & Commercial Complex
284,Vila Velha,BR,76.95,overcast clouds,-20.3297,-40.2925,Hotel Vitória Palace
285,Vaitape,PF,79.86,moderate rain,-16.5167,-151.75,Conrad Bora Bora Nui
287,Sibolga,ID,74.75,overcast clouds,1.7427,98.7792,Hotel Syariah CN Darussalam
291,Joshimath,IN,66.99,scattered clouds,30.5667,79.5667,Shivalik Camps & Resort
292,Bad Orb,DE,66.81,scattered clouds,50.2279,9.3478,Hotel an der Therme Bad Orb
293,Sunnyside,US,72.84,broken clouds,46.3237,-120.0087,Rodeway Inn
296,Contamana,PE,75.92,overcast clouds,-7.3333,-75.0167,Shiringal Touristic Park
300,Portsmouth,GB,67.51,scattered clouds,50.799,-1.0913,Royal Beach Hotel
301,Zhezkazgan,KZ,68.41,broken clouds,47.8043,67.7144,Hotel Zumrat
302,Inhambane,MZ,71.58,scattered clouds,-23.865,35.3833,Oceano
305,Nabire,ID,75.02,few clouds,-3.3667,135.4833,Hotel Nusantara I
307,Gezing,AT,71.85,few clouds,47.9178,13.1299,Landhaus Brieger
310,Robertsport,LR,79.79,overcast clouds,6.7533,-11.3686,Kwepunha Retreat
314,Fare,PF,79.74,moderate rain,-16.7,-151.0167,Maitai Lapita Village Huahine
319,Fort-Shevchenko,KZ,73.22,clear sky,44.5086,50.263,Oasis hotel Bautino
322,Avon Park,US,78.78,light rain,27.5959,-81.5062,Econo Lodge Sebring
324,Eureka,US,77.18,overcast clouds,40.8021,-124.1637,Eureka Inn Trademark By Wyndham
326,Ugoofaaru,MV,83.14,overcast clouds,5.6667,73.0,Ungoofaaru Inn
329,Marsa Matruh,EG,73.6,clear sky,31.3525,27.2453,Beau Site
332,Saint-Pierre,RE,68.92,clear sky,-21.3393,55.4781,Alize Plage
333,Jonkoping,SE,65.91,clear sky,57.7814,14.1562,Scandic Portalen
334,Palmer,US,77.07,broken clouds,42.1584,-72.3287,Wedgewood Motel
336,Talara,PE,72.36,broken clouds,-4.5772,-81.2719,Hostal Oro Negro
337,Poshtove,UA,67.51,overcast clouds,44.8311,33.9545,Yayla Hotel
338,Lorengau,PG,80.69,few clouds,-2.0226,147.2712,Lorengau Harbourside Hotel
339,Kenora,CA,72.57,few clouds,49.8167,-94.4337,Maynard Lake Lodge
341,Harper,LR,75.54,moderate rain,4.375,-7.7169,Screensaver
342,Tiznit,MA,77.2,clear sky,29.5833,-9.5,
346,Georgetown,MY,76.98,scattered clouds,5.4112,100.3354,Cititel Penang
348,Poum,NC,75.6,overcast clouds,-20.2333,164.0167,
349,Sanok,PL,66.06,clear sky,49.5557,22.2056,Jagielloński Hotel i Restauracja
350,Jiazi,CN,78.64,overcast clouds,22.8779,116.067,Hotel Jin Hao
352,Miri,MY,78.94,thunderstorm,4.4148,114.0089,"Mega Hotel, Miri"
355,Faanui,PF,79.9,moderate rain,-16.4833,-151.75,Bora-Bora Pearl Beach Resort & Spa
359,Navalgund,IN,74.48,overcast clouds,15.5667,75.3667,Naveen Park Hotel
360,Sarangani,PH,83.79,overcast clouds,5.4033,125.4636,JVL Inn and Cafeteria
363,Pacasmayo,PE,68.97,scattered clouds,-7.4006,-79.5714,Hotel Libertad
366,Colonia,DE,75.43,broken clouds,50.9333,6.95,Mauritius Hotel & Therme
370,Farah,AF,84.0,clear sky,32.5,62.5,
372,Ampanihy,MG,65.97,clear sky,-24.7,44.75,Angora Hotel
376,Basco,PH,84.11,overcast clouds,20.4487,121.9702,Nathaniel's Lodge
377,Oyem,GA,73.27,overcast clouds,1.5995,11.5793,Commissariat de police
378,Salinopolis,BR,82.35,few clouds,-0.6136,-47.3561,Salinas Park Resort Maçarico AP101
379,Banepa,NP,70.12,few clouds,27.6298,85.5214,Dhulikhel Lodge Resort
380,Nalut,LY,81.95,clear sky,30.3333,10.85,
381,Oga,IT,65.08,clear sky,46.4631,10.347,QC Terme Bagni di Bormio Bagni Nuovi
382,Krasnogvardeyskoye,RU,75.43,broken clouds,45.8456,41.5186,Staraya Mel'nitsa Gostinitsa
383,Ailigandi,PA,80.55,overcast clouds,9.2333,-78.0167,Akwa Reef Lodge
384,Boo,SE,67.68,few clouds,59.3333,18.2833,Yasuragi
385,Krzeszowice,PL,67.95,few clouds,50.1425,19.6322,Pozytywka Apartament & Spa
386,Obuasi,GH,71.71,moderate rain,6.206,-1.6619,Mawuli Hotel
387,Neepawa,CA,73.8,broken clouds,50.2289,-99.4664,"Westway Inn Motel, Neepawa"
388,Dorado,PR,84.09,broken clouds,18.4588,-66.2677,Embassy Suites by Hilton Dorado del Mar Beach Resort
392,Tumarbong,PH,79.81,broken clouds,10.3766,119.4579,Rufino’s Place
393,Fomboni,KM,79.52,clear sky,-12.28,43.7425,Auberge les abou
394,Anastacio,BR,71.83,overcast clouds,-20.4836,-55.8069,HOTEL ARARAS
398,Camopi,GF,80.46,broken clouds,3.1655,-52.3158,La pousada
401,Nargana,PA,80.96,overcast clouds,9.4428,-78.5906,Dubbir
402,Marawi,PH,68.4,overcast clouds,7.9986,124.2928,Derogongan Residence
403,Agalatovo,RU,65.34,clear sky,60.2195,30.2739,Vacation Home in Kerro
405,Holland,US,74.55,clear sky,42.7875,-86.1089,Hampton Inn Holland
406,Dubovka,RU,77.95,broken clouds,49.0583,44.829,Mini-Hotel on Severnaya
408,Biograd Na Moru,HR,77.7,clear sky,43.9433,15.4519,Villa Maimare
409,Minot,US,74.8,clear sky,48.2325,-101.2963,Noble Inn
411,Sulangan,PH,82.8,overcast clouds,11.1373,123.7228,Maia's Beach Resort
413,Rwamagana,RW,71.04,overcast clouds,-1.9487,30.4347,Avega East Hostel
415,Phan Thiet,VN,78.22,overcast clouds,10.9333,108.1,Hotel Saigon-PT
418,Comodoro Rivadavia,AR,66.06,clear sky,-45.8667,-67.5,Austral Hotel
419,Grants Pass,US,74.71,haze,42.439,-123.3284,Shilo Inns Grants Pass
420,Nishihara,JP,76.28,overcast clouds,26.1842,127.7558,Minshuku Agaihama
424,Aljezur,PT,74.46,scattered clouds,37.3191,-8.8033,Amazigh Hostel
425,Aracati,BR,82.65,broken clouds,-4.5617,-37.7697,Hostel Pousada Ibiza
427,Carira,BR,75.65,broken clouds,-10.3608,-37.7011,Praca dos motorista
428,Lobito,AO,73.49,clear sky,-12.3481,13.5456,Casa Rosa Hotel Residence
429,Ta Khmau,KH,82.45,scattered clouds,11.4833,104.95,Takhmao Good Health Hotel
430,Meulaboh,ID,76.57,light rain,4.1363,96.1285,Kost Pria
432,Ashland,US,77.04,overcast clouds,40.8167,-82.2665,SureStay
434,Saint-Denis,FR,77.56,clear sky,48.9167,2.3333,ibis budget Paris Porte de Montmartre
435,Ambanja,MG,70.92,light rain,-13.6833,48.45,Hotel Salama and Fast Food
440,Touros,BR,82.31,broken clouds,-5.1989,-35.4608,INN NEW HORIZON
442,Labuhan,ID,79.77,overcast clouds,-6.8844,112.2051,DoubleFAG
443,Isiolo,KE,69.73,overcast clouds,0.3546,37.5822,Gaddisa Hotel
444,Magdalena,PH,81.36,overcast clouds,14.1999,121.429,Samparada & Gestiada Residences
446,Balkanabat,TM,81.3,broken clouds,39.5108,54.3671,Nebitchi Hotel
447,Feijo,BR,73.71,overcast clouds,-8.1642,-70.3536,Hotel e Restaurante Aҫai
452,Nguruka,TZ,72.32,broken clouds,-5.1092,31.0419,RUSULI LODGE
453,Sao Joao Da Barra,BR,71.69,overcast clouds,-21.6403,-41.0511,Pousada Porto De Canoas
457,Dolores Hidalgo,MX,83.79,clear sky,21.1561,-100.9308,Hotel Hidalgo
459,Kushima,JP,65.43,overcast clouds,31.4583,131.2333,Hanaoka
461,Ilebo,CD,76.03,clear sky,-4.3167,20.5833,Hôtel BUMAK
462,Porto Velho,BR,73.45,broken clouds,-8.7619,-63.9039,Ecos Hotel Conforto
464,Itaberai,BR,82.6,overcast clouds,-16.0203,-49.8103,HOTEL ARAGUAIA
465,Chitral,PK,73.06,few clouds,35.8462,71.7858,PTDC Motel Chitral
466,Kalmunai,LK,81.86,overcast clouds,7.4167,81.8167,VS Villa
469,Lhokseumawe,ID,78.64,moderate rain,5.1801,97.1507,OYO 3278 Penginapan Alfajri
470,Luganville,VU,76.59,light rain,-15.5333,167.1667,The Espiritu Hotel
474,Sembakung,ID,72.52,broken clouds,3.8167,117.25,
475,Muroto,JP,69.51,light rain,33.2833,134.15,Oota Ryokan
477,Dicabisagan,PH,79.34,overcast clouds,17.0818,122.4157,Nancy Montanes Bernardo
478,Jipijapa,EC,74.7,broken clouds,-1.3333,-80.5833,Hotel Los Ceibos Jipijapa
480,Nanakuli,US,81.45,clear sky,21.3906,-158.1547,Camp Pālehua
481,Port Hedland,AU,68.05,overcast clouds,-20.3167,118.5667,The Esplanade Hotel
483,Hamilton,US,78.26,scattered clouds,39.1834,-84.5333,Six Acres Bed & Breakfast
484,Tshela,CD,71.24,clear sky,-4.9833,12.9333,Hotel Mirador
487,Altamira,BR,80.19,overcast clouds,-3.2033,-52.2064,Requinte Hotel
488,Narasannapeta,IN,81.05,broken clouds,18.4167,84.05,AVK events and catering
489,Brooks,CA,73.38,clear sky,50.5834,-111.8851,Heritage Inn Hotel & Convention Centre
490,Kikwit,CD,75.29,clear sky,-5.041,18.8162,HOTEL PLACE YALABA
491,Erie,US,75.99,scattered clouds,42.7667,-78.6664,Roycroft Inn
492,Metro,ID,74.21,overcast clouds,-5.1131,105.3067,OYO 3177 Wisma Lintang
497,Komsomolskiy,UZ,77.72,few clouds,40.4272,71.7189,Ikathouse
498,Sabak,MY,73.45,overcast clouds,3.7675,100.9875,Homestay Nur Kasih Inap Desa
499,Grand Gaube,MU,73.8,light rain,-20.0064,57.6608,Veranda Paul et Virginie Hotel & Spa
500,Merauke,ID,76.3,overcast clouds,-8.4667,140.3333,
507,Mayumba,GA,76.39,clear sky,-3.432,10.6554,LIKWALE LODGE
508,Donauworth,DE,74.95,clear sky,48.7,10.8,ASSOS HOTEL
509,Roma,US,75.81,broken clouds,43.2128,-75.4557,Wingate By Wyndham Rome
512,Moerai,PF,74.59,overcast clouds,-22.4333,-151.3333,Le Manotel
517,Kota Belud,MY,76.35,clear sky,6.351,116.4305,Tang Dynasty Lodge Kota Belud
521,Camana,PE,66.27,clear sky,-16.6228,-72.7111,Hostal Morales
522,Sangmelima,CM,70.92,scattered clouds,2.9333,11.9833,gamestar hotel
525,Bandundu,CD,80.53,clear sky,-3.3167,17.3667,Coja Color
526,Weiz,AT,71.26,clear sky,47.2167,15.6167,Hotel Restaurant Allmer
529,Nueva Guinea,NI,78.93,broken clouds,11.6876,-84.4562,Posadita La Reyna
530,Akdepe,TM,75.29,broken clouds,42.0551,59.3788,
531,Zhangye,CN,66.99,overcast clouds,38.9342,100.4517,Zhangye Lvzhou Holiday Inn
534,Samarai,PG,79.99,overcast clouds,-10.6167,150.6667,Nuli Sapi
536,Mangaluru,IN,74.26,light intensity drizzle,12.8667,74.8833,Goldfinch Hotel Mangaluru
537,Margate,GB,66.69,scattered clouds,51.3813,1.3862,Premier Inn Margate hotel
541,Padang,ID,71.65,moderate rain,-0.9492,100.3543,Mercure Padang
542,Hockenheim,DE,72.59,few clouds,49.3228,8.5458,ACHAT Hotel Hockenheim
543,Honiara,SB,75.11,clear sky,-9.4333,159.95,Heritage Park Hotel
544,Sola,VU,80.64,broken clouds,-13.8833,167.55,Leumerus Bungalows
547,Sena Madureira,BR,75.47,overcast clouds,-9.0656,-68.6569,Hotel Central
548,Miles City,US,74.37,clear sky,46.4083,-105.8406,FairBridge Inn & Suites Miles City
550,Acajutla,SV,83.88,overcast clouds,13.5928,-89.8275,Laureles
551,Axim,GH,78.39,overcast clouds,4.8699,-2.2405,Axim Beach Resort And Spa
554,Cuza Voda,RO,69.01,overcast clouds,44.2667,27.2667,La conu' Leo
556,Sudak,UA,70.74,overcast clouds,44.85,34.9667,Solari Beach
557,Sorong,ID,81.01,scattered clouds,-0.8833,131.25,Waigo Splash Hotel
561,Surab,PK,77.56,overcast clouds,28.4914,66.2585,Bismillah Hotel
562,Marienburg,PL,67.57,broken clouds,54.0359,19.0266,Hotel Centrum Malbork
567,Kuryk,KZ,73.47,broken clouds,43.2,51.65,Gostinitsa Kuryk - Otel' Dlya Vsekh Kategoriy Kliyentov .
569,Paragominas,BR,79.79,overcast clouds,-2.9667,-47.4833,INOVA
574,Cobija,BO,77.18,overcast clouds,-11.0267,-68.7692,Hotel Obelisco
575,Paraopeba,BR,80.17,overcast clouds,-19.2757,-44.4033,HC Hotel Paraopeba
576,Bay Roberts,CA,73.15,overcast clouds,47.5999,-53.2648,Stonewall Inn
578,Ambilobe,MG,69.6,scattered clouds,-13.2,49.05,Hôtel & Restaurant DIANA Ambilobe
579,Semey,KZ,72.1,broken clouds,50.4111,80.2275,Grand Hotel Semey
587,Kathu,TH,83.75,overcast clouds,7.9178,98.3332,Novotel Phuket Resort
588,San Juan,AR,66.43,clear sky,-31.5375,-68.5364,Hotel Provincial
590,Namatanai,PG,78.31,clear sky,-3.6667,152.4333,Seagulls Inn Namatani
591,San Quintin,MX,73.78,clear sky,30.4833,-115.95,Don Eddie's Sport Fishing Center
594,Loreto,MX,82.26,clear sky,22.2667,-101.9667,José de Jesús Velásquez mora
596,Carutapera,BR,81.16,overcast clouds,-1.195,-46.02,Lidera
599,Hirara,JP,79.02,overcast clouds,24.8,125.2833,Hotel Atoll Emerald Miyakojima
600,Bacolod,PH,78.66,overcast clouds,10.6667,122.95,Planta Hotel & Residences
601,Santa Fe,AR,65.95,clear sky,-31.6333,-60.7,Conquistador Hotel
602,Porto Santo,PT,68.38,scattered clouds,33.072,-16.3415,Hotel Porto Santo & Spa
603,Gilgit,PK,71.53,overcast clouds,35.9221,74.3087,Tourist Hamlet Gilgit
606,Ushtobe,KZ,68.59,scattered clouds,45.2514,77.9838,Filipin Squad
608,Itarema,BR,81.57,clear sky,-2.9248,-39.9167,"Sea Lounge! Bar, Club & Restaurant"
609,Terre Haute,US,79.97,overcast clouds,39.4667,-87.4139,Drury Inn & Suites Terre Haute
611,Awjilah,LY,80.33,clear sky,29.1081,21.2869,المنزل
612,Los Llanos De Aridane,ES,69.55,few clouds,28.6585,-17.9182,Valle Aridane
613,Changji,CN,83.19,clear sky,44.0167,87.3167,Lvye Holiday Resort
614,Clinton,US,79.41,broken clouds,42.587,-82.9199,River's Edge
616,Vallenar,CL,73.98,clear sky,-28.5708,-70.7581,Humacao Bed & Breakfast
617,Athabasca,CA,72.01,overcast clouds,54.7169,-113.2854,Athabasca Lodge Motel
619,Santa Cruz,BO,71.06,broken clouds,-17.8,-63.1667,Aviador Hotel Boutique
620,Brainerd,US,74.98,scattered clouds,46.358,-94.2008,"Holiday Inn Express & Suites Brainerd-Baxter, an IHG Hotel"
623,Bukoba,TZ,68.05,scattered clouds,-1.3317,31.8122,Elct Bukoba Hotel and Tours
624,Kudahuvadhoo,MV,82.94,overcast clouds,2.6708,72.8944,Niyama Private Islands Maldives
626,Jeremoabo,BR,78.12,light rain,-10.075,-38.4808,
631,Eravur,LK,81.34,overcast clouds,7.7733,81.6095,Farhan KING House
632,Frontera Comalapa,MX,84.67,few clouds,15.65,-92.1333,Hotel del Angel
635,Coxim,BR,75.97,overcast clouds,-18.5067,-54.76,Hotel Avenida
636,Ovalle,CL,71.56,clear sky,-30.5983,-71.2003,Hotel Altos de Tuqui
637,Sainte-Suzanne,RE,69.98,broken clouds,-20.9061,55.6089,Gites Ango
638,Shaunavon,CA,69.58,overcast clouds,49.6501,-108.4181,Bear's Den Lodge
640,Maceio,BR,76.44,broken clouds,-9.6658,-35.7353,Hotel Ponta Verde Maceió
644,San Juan Bautista,PE,81.16,clear sky,-14.0108,-75.7358,Hotel Las Dunas
645,Ponta Delgada,PT,68.5,broken clouds,37.7333,-25.6667,Vila Nova Hotel
646,Centralia,US,65.34,haze,46.7162,-122.9543,Peppermill Inn
650,Tezu,IN,74.39,overcast clouds,27.9167,96.1667,Circuit House
654,Bumbuna,SL,76.17,scattered clouds,9.05,-11.7333,
656,Eyl,SO,79.2,overcast clouds,7.9803,49.8164,Amiin Hotel
660,Port Hawkesbury,CA,77.88,few clouds,45.6169,-61.3485,MacKenzie House Tourist Home B&B
663,Puerto Gaitan,CO,73.94,light rain,4.3133,-72.0816,Brisas del Yucao
664,Vila Franca Do Campo,PT,68.2,moderate rain,37.7167,-25.4333,Pestana Bahia Praia
665,Agen,FR,82.49,overcast clouds,44.2,0.6333,Appart'City Agen Centre - Appart Hôtel
667,Goderich,CA,70.12,scattered clouds,43.7501,-81.7165,Harmony Inn
669,Amahai,ID,77.76,broken clouds,-3.3333,128.9167,HOTEL ISABELA
670,Sambava,MG,71.33,overcast clouds,-14.2667,50.1667,Melrose
674,Sao Jose Da Coroa Grande,BR,79.41,few clouds,-8.8978,-35.1478,Crôa Mares Hotel
676,Kupang,ID,76.19,overcast clouds,-10.1667,123.5833,Hotel On The Rock by Prasanthi
677,Rujewa,TZ,66.06,broken clouds,-8.7,34.3833,Mafanikio Inn Lodge
678,Kavaratti,IN,83.37,overcast clouds,10.5669,72.642,Hotels in Lakshadweep Islands
679,Amapa,BR,78.28,broken clouds,1.0,-52.0,
682,Pailon,BO,72.5,overcast clouds,-17.65,-62.75,La plaza
683,Benguela,AO,72.84,clear sky,-12.5763,13.4055,Hotel Praia Morena
685,Nicoya,CR,84.47,overcast clouds,10.1483,-85.452,Las Cabinas Del Sueño
688,Sri Aman,MY,77.09,light rain,1.2376,111.4621,Seri Simanggang Hotel
690,Odweyne,SO,78.57,overcast clouds,9.4092,45.064,Eng Hiirey House
692,Hakui,JP,65.23,overcast clouds,36.8833,136.7833,KYUKAMURA NOTO-CHIRIHAMA
693,Parrita,CR,83.41,overcast clouds,9.5201,-84.3225,Beso del Viento
694,Longyan,CN,72.72,light rain,25.1072,117.0225,Jinjiang Inn Longyan Zhongshan Road Pedestrian Street
696,Ferme-Neuve,CA,72.27,scattered clouds,46.7001,-75.4493,Pourvoirie Club Fontbrune Ltee
698,Saint Albans,GB,69.15,scattered clouds,51.75,-0.3333,The White Hart
699,Sinnamary,GF,82.49,few clouds,5.3833,-52.95,ALETHEIA Appartement Sinnamary
703,Paracuru,BR,83.1,few clouds,-3.41,-39.0306,Hotel Vento Brasil
704,Bongandanga,CD,75.69,scattered clouds,1.5,21.05,
